epoch_ms,alt_cm,roll_deg,pitch_deg,velocity_m/s,lat_dd,lon_dd,year,month,day,hour,min,sec,sog,cog,throttle_command,pitch_command,yaw_command,roll_command
2104,0.00,NAN ,0.000000,24287.000000,0.0000000,0.0000000,2000,0,0,0,0,3.00,0.00,0.00,0,0,0,0
2155,0.00,NAN ,0.000000,13742.000000,0.0000000,0.0000000,2000,0,0,0,0,3.00,0.00,0.00,0,0,0,0
2205,0.00,NAN ,0.000000,26210.000000,0.0000000,0.0000000,2000,0,0,0,0,3.00,0.00,0.00,0,0,0,0
2254,0.00,NAN ,0.000000,21587.000000,0.0000000,0.0000000,2000,0,0,0,0,3.00,0.00,0.00,0,0,0,0
2304,0.00,NAN ,0.000000,15123.000000,0.0000000,0.0000000,2000,0,0,0,0,3.00,0.00,0.00,0,0,0,0
2355,0.00,NAN ,0.000000,11454.000000,0.0000000,0.0000000,2000,0,0,0,0,3.00,0.00,0.00,0,0,0,0
2405,0.00,NAN ,0.000000,25715.000000,0.0000000,0.0000000,2000,0,0,0,0,3.00,0.00,0.00,0,0,0,0
2454,0.00,NAN ,0.000000,17830.000000,0.0000000,0.0000000,2000,0,0,0,0,3.00,0.00,0.00,0,0,0,0
2504,0.00,NAN ,0.000000,27787.000000,0.0000000,0.0000000,2000,0,0,0,0,3.00,0.00,0.00,0,0,0,0
2555,0.00,NAN ,0.000000,16809.000000,0.0000000,0.0000000,2000,0,0,0,0,3.00,0.00,0.00,0,0,0,0
2605,0.00,NAN ,0.000000,20158.000000,0.0000000,0.0000000,2000,0,0,0,0,3.00,0.00,0.00,0,0,0,0
2654,0.00,-1.726543,-1.477336,18779.000000,0.0000000,0.0000000,2000,0,0,0,0,3.00,0.00,0.00,0,0,0,0
2705,0.00,-1.615035,-1.455845,16504.000000,0.0000000,0.0000000,2000,0,0,0,0,3.00,0.00,0.00,0,0,0,0
2755,0.00,-1.789089,-1.498824,16114.000000,0.0000000,0.0000000,2000,0,0,0,0,3.00,0.00,0.00,0,0,0,0
2805,0.00,-1.573601,-1.483221,20579.000000,0.0000000,0.0000000,2000,0,0,0,0,3.00,0.00,0.00,0,0,0,0
2854,0.00,-1.594570,-1.511210,13342.000000,0.0000000,0.0000000,2000,0,0,0,0,3.00,0.00,0.00,0,0,0,0
2904,0.00,-1.809937,-1.526944,15999.000000,0.0000000,0.0000000,2000,0,0,0,0,3.00,0.00,0.00,0,0,0,0
2954,0.00,-1.565682,-1.505160,15085.000000,0.0000000,0.0000000,2000,0,0,0,0,3.00,0.00,0.00,0,0,0,0
3005,0.00,-1.649662,-1.533124,17234.000000,0.0000000,0.0000000,2000,0,0,0,0,3.00,0.00,0.00,0,0,0,0
3054,0.00,-1.684531,-1.533260,16198.000000,0.0000000,0.0000000,2000,0,0,0,0,3.00,0.00,0.00,0,0,0,0
3105,0.00,-1.517074,-1.539720,28028.000000,0.0000000,0.0000000,2000,0,0,0,0,3.00,0.00,0.00,1500,1500,1500,1500
3154,0.00,-1.844879,-1.555183,18127.000000,0.0000000,0.0000000,2000,0,0,0,0,3.00,0.00,0.00,1500,1500,1500,1500
3204,0.00,-1.656729,-1.554016,15931.000000,0.0000000,0.0000000,2000,0,0,0,0,3.00,0.00,0.00,1500,1500,1500,1500
3255,0.00,-1.643024,-1.560699,21937.000000,0.0000000,0.0000000,2000,0,0,0,0,3.00,0.00,0.00,1500,1500,1500,1500
3305,0.00,-1.754333,-1.561421,20069.000000,0.0000000,0.0000000,2000,0,0,0,0,3.00,0.00,0.00,1500,1500,1500,1500
3355,0.00,-1.649445,-1.561308,18012.000000,0.0000000,0.0000000,2000,0,0,0,0,3.00,0.00,0.00,1500,1500,1500,1500
3405,0.00,-1.691400,-1.561353,13967.000000,0.0000000,0.0000000,2000,0,0,0,0,3.00,0.00,0.00,1500,1500,1500,1500
3454,0.00,-1.670525,-1.554233,16528.000000,0.0000000,0.0000000,2000,0,0,0,0,3.00,0.00,0.00,1500,1500,1500,1500
3505,0.00,-1.684503,-1.561242,15353.000000,0.0000000,0.0000000,2000,0,0,0,0,3.00,0.00,0.00,1500,1500,1500,1500
3555,0.00,-1.747436,-1.561306,16879.000000,0.0000000,0.0000000,2000,0,0,0,0,3.00,0.00,0.00,1500,1500,1500,1500
3605,0.00,-1.719466,-1.561278,16245.000000,0.0000000,0.0000000,2000,0,0,0,0,3.00,0.00,0.00,1500,1500,1500,1500
3655,0.00,-1.712473,-1.561271,17891.000000,0.0000000,0.0000000,2000,0,0,0,0,3.00,0.00,0.00,1500,1500,1500,1500
3705,0.00,-1.712473,-1.561271,18939.000000,0.0000000,0.0000000,2000,0,0,0,0,3.00,0.00,0.00,1500,1500,1500,1500
3755,0.00,-1.712473,-1.561271,11073.000000,0.0000000,0.0000000,2000,0,0,0,0,3.00,0.00,0.00,1500,1500,1500,1500
3804,0.00,-1.740443,-1.561299,13119.000000,0.0000000,0.0000000,2000,0,0,0,0,3.00,0.00,0.00,1500,1500,1500,1500
3854,0.00,-1.705481,-1.561264,20782.000000,0.0000000,0.0000000,2000,0,0,0,0,3.00,0.00,0.00,1500,1500,1500,1500
3905,0.00,-1.747436,-1.561306,17882.000000,0.0000000,0.0000000,2000,0,0,0,0,3.00,0.00,0.00,1500,1500,1500,1500
3954,0.00,-1.768413,-1.561328,12247.000000,0.0000000,0.0000000,2000,0,0,0,0,3.00,0.00,0.00,1500,1500,1500,1500
4005,0.00,-1.740443,-1.561299,22573.000000,0.0000000,0.0000000,2000,0,0,0,0,3.00,0.00,0.00,1500,1500,1500,1500
4055,0.00,-1.761421,-1.561321,22323.000000,0.0000000,0.0000000,2000,0,0,0,0,3.00,0.00,0.00,1500,1500,1500,1500
4105,0.00,-1.733451,-1.561292,17490.000000,0.0000000,0.0000000,2000,0,0,0,0,3.00,0.00,0.00,1500,1500,1500,1500
4154,0.00,-1.740443,-1.561299,18956.000000,0.0000000,0.0000000,2000,0,0,0,0,3.00,0.00,0.00,1500,1500,1500,1500
4205,0.00,-1.789499,-1.561445,19356.000000,0.0000000,0.0000000,2000,0,0,0,0,3.00,0.00,0.00,1500,1500,1500,1500
4254,0.00,-1.789499,-1.561445,10679.000000,0.0000000,0.0000000,2000,0,0,0,0,3.00,0.00,0.00,1500,1500,1500,1500
4304,0.00,-1.782507,-1.561438,16941.000000,0.0000000,0.0000000,2000,0,0,0,0,3.00,0.00,0.00,1500,1500,1500,1500
4354,0.00,-1.803485,-1.561460,20252.000000,0.0000000,0.0000000,2000,0,0,0,0,3.00,0.00,0.00,1500,1500,1500,1500
4405,0.00,-1.789507,-1.554449,17498.000000,0.0000000,0.0000000,2000,0,0,0,0,3.00,0.00,0.00,1500,1500,1500,1500
4455,0.00,-1.768420,-1.554332,21708.000000,0.0000000,0.0000000,2000,0,0,0,0,3.00,0.00,0.00,1500,1500,1500,1500
4504,0.00,-1.768420,-1.554332,27964.000000,0.0000000,0.0000000,2000,0,0,0,0,3.00,0.00,0.00,1500,1500,1500,1500
4554,0.00,-1.761428,-1.554325,27472.000000,0.0000000,0.0000000,2000,0,0,0,0,3.00,0.00,0.00,1500,1500,1500,1500
4605,0.00,-1.768420,-1.554332,15076.000000,0.0000000,0.0000000,2000,0,0,0,0,3.00,0.00,0.00,1500,1500,1500,1500
4654,0.00,-1.789398,-1.554354,20131.000000,0.0000000,0.0000000,2000,0,0,0,0,3.00,0.00,0.00,1500,1500,1500,1500
4704,0.00,-1.768420,-1.554332,23046.000000,0.0000000,0.0000000,2000,0,0,0,0,3.00,0.00,0.00,1500,1500,1500,1500
4755,0.00,-1.754435,-1.554318,11274.000000,0.0000000,0.0000000,2000,0,0,0,0,3.00,0.00,0.00,1500,1500,1500,1500
4805,0.00,-1.768420,-1.554332,25018.000000,0.0000000,0.0000000,2000,0,0,0,0,3.00,0.00,0.00,1500,1500,1500,1500
4855,0.00,-1.754435,-1.554318,27898.000000,0.0000000,0.0000000,2000,0,0,0,0,3.00,0.00,0.00,1500,1500,1500,1500
4904,0.00,-1.761333,-1.554433,24290.000000,0.0000000,0.0000000,2000,0,0,0,0,3.00,0.00,0.00,1500,1500,1500,1500
4956,0.00,-1.782302,-1.561451,13943.000000,0.0000000,0.0000000,2000,0,0,0,0,3.00,0.00,0.00,1500,1500,1500,1500
5004,0.00,-1.775310,-1.561444,18378.000000,0.0000000,0.0000000,2000,0,0,0,0,3.00,0.00,0.00,1500,1500,1500,1500
5054,0.00,-1.768318,-1.561436,17246.000000,0.0000000,0.0000000,2000,0,0,0,0,3.00,0.00,0.00,1500,1500,1500,1500
5106,0.00,-1.768318,-1.561436,19199.000000,0.0000000,0.0000000,2000,0,0,0,0,3.00,0.00,0.00,1500,1500,1500,1500
5155,0.00,-1.768318,-1.561436,13920.000000,0.0000000,0.0000000,2000,0,0,0,0,3.00,0.00,0.00,1500,1500,1500,1500
5205,0.00,-1.768318,-1.561436,25860.000000,0.0000000,0.0000000,2000,0,0,0,0,3.00,0.00,0.00,1500,1500,1500,1500
5254,0.00,-1.775310,-1.561444,16970.000000,0.0000000,0.0000000,2000,0,0,0,0,3.00,0.00,0.00,1500,1500,1500,1500
5305,0.00,-1.768318,-1.561436,21898.000000,0.0000000,0.0000000,2000,0,0,0,0,3.00,0.00,0.00,1500,1500,1500,1500
5356,0.00,-1.768318,-1.561436,18565.000000,0.0000000,0.0000000,2000,0,0,0,0,3.00,0.00,0.00,1500,1500,1500,1500
5406,0.00,-1.775310,-1.561444,24140.000000,0.0000000,0.0000000,2000,0,0,0,0,3.00,0.00,0.00,1500,1500,1500,1500
5456,0.00,-1.775310,-1.561444,12460.000000,0.0000000,0.0000000,2000,0,0,0,0,3.00,0.00,0.00,1500,1500,1500,1500
5506,0.00,-1.775310,-1.561444,21055.000000,0.0000000,0.0000000,2000,0,0,0,0,3.00,0.00,0.00,1500,1500,1500,1500
5555,0.00,-1.775310,-1.561444,10335.000000,0.0000000,0.0000000,2000,0,0,0,0,3.00,0.00,0.00,1500,1500,1500,1500
5606,0.00,-1.775310,-1.561444,12661.000000,0.0000000,0.0000000,2000,0,0,0,0,3.00,0.00,0.00,1500,1500,1500,1500
5655,0.00,-1.775310,-1.561444,19402.000000,0.0000000,0.0000000,2000,0,0,0,0,3.00,0.00,0.00,1500,1500,1500,1500
5706,0.00,-1.775310,-1.561444,26123.000000,0.0000000,0.0000000,2000,0,0,0,0,3.00,0.00,0.00,1500,1500,1500,1500
5754,0.00,-1.768318,-1.561436,16041.000000,0.0000000,0.0000000,2000,0,0,0,0,3.00,0.00,0.00,1500,1500,1500,1500
5805,0.00,-1.768318,-1.561436,15209.000000,0.0000000,0.0000000,2000,0,0,0,0,3.00,0.00,0.00,1500,1500,1500,1500
5856,0.00,-1.761325,-1.561428,15843.000000,0.0000000,0.0000000,2000,0,0,0,0,3.00,0.00,0.00,1500,1500,1500,1500
5906,0.00,-1.754333,-1.561421,12042.000000,0.0000000,0.0000000,2000,0,0,0,0,3.00,0.00,0.00,1500,1500,1500,1500
5955,0.00,-1.754333,-1.561421,22518.000000,0.0000000,0.0000000,2000,0,0,0,0,3.00,0.00,0.00,1500,1500,1500,1500
6004,0.00,-1.754333,-1.561421,17232.000000,0.0000000,0.0000000,2000,0,0,0,0,3.00,0.00,0.00,1500,1500,1500,1500
6055,0.00,-1.754325,-1.568416,15270.000000,0.0000000,0.0000000,2000,0,0,0,0,3.00,0.00,0.00,1500,1500,1500,1500
6106,0.00,-1.747333,-1.568409,18221.000000,0.0000000,0.0000000,2000,0,0,0,0,3.00,0.00,0.00,1500,1500,1500,1500
6155,0.00,-1.747333,-1.568409,17312.000000,0.0000000,0.0000000,2000,0,0,0,0,3.00,0.00,0.00,1500,1500,1500,1500
6205,0.00,-1.747333,-1.568409,14760.000000,0.0000000,0.0000000,2000,0,0,0,0,3.00,0.00,0.00,1500,1500,1500,1500
6254,0.00,-1.754325,-1.568416,13216.000000,0.0000000,0.0000000,2000,0,0,0,0,3.00,0.00,0.00,1500,1500,1500,1500
6306,0.00,-1.754325,-1.568416,16047.000000,0.0000000,0.0000000,2000,0,0,0,0,3.00,0.00,0.00,1500,1500,1500,1500
6355,0.00,-1.754325,-1.568416,18909.000000,0.0000000,0.0000000,2000,0,0,0,0,3.00,0.00,0.00,1500,1500,1500,1500
6405,0.00,-1.754325,-1.568416,17277.000000,0.0000000,0.0000000,2000,0,0,0,0,3.00,0.00,0.00,1500,1500,1500,1500
6455,0.00,-1.747333,-1.568409,19177.000000,0.0000000,0.0000000,2000,0,0,0,0,3.00,0.00,0.00,1500,1500,1500,1500
6505,0.00,-1.747333,-1.568409,16399.000000,0.0000000,0.0000000,2000,0,0,0,0,3.00,0.00,0.00,1500,1500,1500,1500
6555,0.00,-1.733340,-1.575389,21927.000000,0.0000000,0.0000000,2000,0,0,0,0,3.00,0.00,0.00,1500,1500,1500,1500
6606,0.00,-1.740333,-1.575397,15469.000000,0.0000000,0.0000000,2000,0,0,0,0,3.00,0.00,0.00,1500,1500,1500,1500
6655,0.00,-1.733340,-1.575389,21294.000000,0.0000000,0.0000000,2000,0,0,0,0,3.00,0.00,0.00,1500,1500,1500,1500
6705,0.00,-1.733340,-1.575389,18916.000000,0.0000000,0.0000000,2000,0,0,0,0,3.00,0.00,0.00,1500,1500,1500,1500
6755,0.00,-1.726340,-1.582377,10636.000000,0.0000000,0.0000000,2000,0,0,0,0,3.00,0.00,0.00,1500,1500,1500,1500
6805,0.00,-1.719348,-1.582370,16809.000000,0.0000000,0.0000000,2000,0,0,0,0,3.00,0.00,0.00,1500,1500,1500,1500
6854,0.00,-1.719348,-1.582370,23963.000000,0.0000000,0.0000000,2000,0,0,0,0,3.00,0.00,0.00,1500,1500,1500,1500
6905,0.00,-1.712355,-1.582362,11993.000000,0.0000000,0.0000000,2000,0,0,0,0,3.00,0.00,0.00,1500,1500,1500,1500
6955,0.00,-1.712355,-1.582362,16439.000000,0.0000000,0.0000000,2000,0,0,0,0,3.00,0.00,0.00,1500,1500,1500,1500
7004,0.00,-1.705363,-1.582355,14362.000000,0.0000000,0.0000000,2000,0,0,0,0,3.00,0.00,0.00,1500,1500,1500,1500
7054,0.00,-1.698370,-1.582347,24087.000000,0.0000000,0.0000000,2000,0,0,0,0,3.00,0.00,0.00,1500,1500,1500,1500
7105,0.00,-1.705363,-1.582355,20081.000000,0.0000000,0.0000000,2000,0,0,0,0,3.00,0.00,0.00,1500,1500,1500,1500
7155,0.00,-1.698370,-1.582347,15653.000000,0.0000000,0.0000000,2000,0,0,0,0,3.00,0.00,0.00,1500,1500,1500,1500
7205,0.00,-1.691378,-1.582339,20261.000000,0.0000000,0.0000000,2000,0,0,0,0,3.00,0.00,0.00,1500,1500,1500,1500
7255,0.00,-1.691378,-1.582339,19812.000000,0.0000000,0.0000000,2000,0,0,0,0,3.00,0.00,0.00,1500,1500,1500,1500
7304,0.00,-1.691370,-1.589335,13876.000000,0.0000000,0.0000000,2000,0,0,0,0,3.00,0.00,0.00,1500,1500,1500,1500
7354,0.00,-1.684378,-1.589327,20894.000000,0.0000000,0.0000000,2000,0,0,0,0,3.00,0.00,0.00,1500,1500,1500,1500
7405,0.00,-1.677385,-1.589320,21698.000000,0.0000000,0.0000000,2000,0,0,0,0,3.00,0.00,0.00,1500,1500,1500,1500
7455,0.00,-1.677385,-1.589320,16621.000000,0.0000000,0.0000000,2000,0,0,0,0,3.00,0.00,0.00,1500,1500,1500,1500
7505,0.00,-1.670393,-1.589312,21456.000000,0.0000000,0.0000000,2000,0,0,0,0,3.00,0.00,0.00,1500,1500,1500,1500
7555,0.00,-1.670393,-1.589312,18852.000000,0.0000000,0.0000000,2000,0,0,0,0,3.00,0.00,0.00,1500,1500,1500,1500
7605,0.00,-1.670393,-1.589312,23724.000000,0.0000000,0.0000000,2000,0,0,0,0,3.00,0.00,0.00,1500,1500,1500,1500
7655,0.00,-1.663400,-1.589305,23873.000000,0.0000000,0.0000000,2000,0,0,0,0,3.00,0.00,0.00,1500,1500,1500,1500
7704,0.00,-1.663400,-1.589305,19085.000000,0.0000000,0.0000000,2000,0,0,0,0,3.00,0.00,0.00,1500,1500,1500,1500
7754,0.00,-1.663400,-1.589305,22892.000000,0.0000000,0.0000000,2000,0,0,0,0,3.00,0.00,0.00,1500,1500,1500,1500
7804,0.00,-1.663400,-1.589305,12052.000000,0.0000000,0.0000000,2000,0,0,0,0,3.00,0.00,0.00,1500,1500,1500,1500
7855,0.00,-1.663400,-1.589305,22187.000000,0.0000000,0.0000000,2000,0,0,0,0,3.00,0.00,0.00,1500,1500,1500,1500
7905,0.00,-1.663400,-1.589305,20955.000000,0.0000000,0.0000000,2000,0,0,0,0,3.00,0.00,0.00,1500,1500,1500,1500
7955,0.00,-1.677385,-1.589320,20817.000000,0.0000000,0.0000000,2000,0,0,0,0,3.00,0.00,0.00,1500,1500,1500,1500
8005,0.00,-1.677385,-1.589320,16338.000000,0.0000000,0.0000000,2000,0,0,0,0,3.00,0.00,0.00,1500,1500,1500,1500
8054,0.00,-1.677385,-1.589320,18617.000000,0.0000000,0.0000000,2000,0,0,0,0,3.00,0.00,0.00,1500,1500,1500,1500
8106,0.00,-1.684378,-1.589327,20130.000000,0.0000000,0.0000000,2000,0,0,0,0,3.00,0.00,0.00,1500,1500,1500,1500
8154,0.00,-1.691370,-1.589335,18426.000000,0.0000000,0.0000000,2000,0,0,0,0,3.00,0.00,0.00,1500,1500,1500,1500
8205,0.00,-1.698363,-1.589343,24264.000000,0.0000000,0.0000000,2000,0,0,0,0,3.00,0.00,0.00,1500,1500,1500,1500
8256,0.00,-1.698363,-1.589343,10393.000000,0.0000000,0.0000000,2000,0,0,0,0,3.00,0.00,0.00,1500,1500,1500,1500
8306,2022.00,-1.719340,-1.589365,18219.000000,0.0000000,0.0000000,2000,0,0,0,0,3.00,0.00,0.00,1500,1500,1500,1500
8354,2022.00,-1.719340,-1.589365,12189.000000,0.0000000,0.0000000,2000,0,0,0,0,3.00,0.00,0.00,1500,1500,1500,1500
8406,2022.00,-1.719340,-1.589365,18795.000000,0.0000000,0.0000000,2000,0,0,0,0,3.00,0.00,0.00,1500,1500,1500,1500
8454,2022.00,-1.719340,-1.589365,19887.000000,0.0000000,0.0000000,2000,0,0,0,0,3.00,0.00,0.00,1500,1500,1500,1500
8504,2022.00,-1.712348,-1.589358,14893.000000,0.0000000,0.0000000,2000,0,0,0,0,3.00,0.00,0.00,1500,1500,1500,1500
8555,2022.00,-1.712348,-1.589358,15935.000000,0.0000000,0.0000000,2000,0,0,0,0,3.00,0.00,0.00,1500,1500,1500,1500
8605,2022.00,-1.726333,-1.589373,22016.000000,0.0000000,0.0000000,2000,0,0,0,0,3.00,0.00,0.00,1500,1500,1500,1500
8655,2022.00,-1.726333,-1.589373,14461.000000,0.0000000,0.0000000,2000,0,0,0,0,3.00,0.00,0.00,1500,1500,1500,1500
8705,2022.00,-1.726333,-1.589373,11216.000000,0.0000000,0.0000000,2000,0,0,0,0,3.00,0.00,0.00,1500,1500,1500,1500
8756,2022.00,-1.726333,-1.589373,7206.000000,0.0000000,0.0000000,2000,0,0,0,0,3.00,0.00,0.00,1500,1500,1500,1500
8805,2022.00,-1.719340,-1.589365,13063.000000,0.0000000,0.0000000,2000,0,0,0,0,3.00,0.00,0.00,1500,1500,1500,1500
8856,2022.00,-1.740317,-1.589388,10087.000000,0.0000000,0.0000000,2000,0,0,0,0,3.00,0.00,0.00,1500,1500,1500,1500
8906,2022.00,-1.740317,-1.589388,17757.000000,0.0000000,0.0000000,2000,0,0,0,0,3.00,0.00,0.00,1500,1500,1500,1500
8956,2022.00,-1.747310,-1.589396,17483.000000,0.0000000,0.0000000,2000,0,0,0,0,3.00,0.00,0.00,1500,1500,1500,1500
9006,2022.00,-1.747310,-1.589396,18967.000000,0.0000000,0.0000000,2000,0,0,0,0,3.00,0.00,0.00,1500,1500,1500,1500
9055,2022.00,-1.747310,-1.589396,21707.000000,0.0000000,0.0000000,2000,0,0,0,0,3.00,0.00,0.00,1500,1500,1500,1500
9106,2022.00,-1.747310,-1.589396,15949.000000,0.0000000,0.0000000,2000,0,0,0,0,3.00,0.00,0.00,1500,1500,1500,1500
9155,2022.00,-1.747310,-1.589396,19777.000000,0.0000000,0.0000000,2000,0,0,0,0,3.00,0.00,0.00,1500,1500,1500,1500
9206,2022.00,-1.747310,-1.589396,20487.000000,0.0000000,0.0000000,2000,0,0,0,0,3.00,0.00,0.00,1500,1500,1500,1500
9255,2022.00,-1.733325,-1.589381,19324.000000,0.0000000,0.0000000,2000,0,0,0,0,3.00,0.00,0.00,1500,1500,1500,1500
9305,2022.00,-1.747310,-1.589396,31088.000000,0.0000000,0.0000000,2000,0,0,0,0,3.00,0.00,0.00,1500,1500,1500,1500
9355,2022.00,-1.740317,-1.589388,16121.000000,0.0000000,0.0000000,2000,0,0,0,0,3.00,0.00,0.00,1500,1500,1500,1500
9455,2022.00,-1.733325,-1.589381,12188.000000,0.0000000,0.0000000,2000,0,0,0,0,3.00,0.00,0.00,1500,1500,1500,1500
9504,2022.00,-1.740317,-1.589388,20996.000000,0.0000000,0.0000000,2000,0,0,0,0,3.00,0.00,0.00,1500,1500,1500,1500
9554,2022.00,-1.747310,-1.589396,17141.000000,0.0000000,0.0000000,2000,0,0,0,0,3.00,0.00,0.00,1500,1500,1500,1500
9605,2022.00,-1.740317,-1.589388,20248.000000,0.0000000,0.0000000,2000,0,0,0,0,3.00,0.00,0.00,1500,1500,1500,1500
9655,2022.00,-1.740317,-1.589388,16335.000000,0.0000000,0.0000000,2000,0,0,0,0,3.00,0.00,0.00,1500,1500,1500,1500
9705,2022.00,-1.733325,-1.589381,10900.000000,0.0000000,0.0000000,2000,0,0,0,0,3.00,0.00,0.00,1500,1500,1500,1500
9754,2022.00,-1.740317,-1.589388,15331.000000,0.0000000,0.0000000,2000,0,0,0,0,3.00,0.00,0.00,1500,1500,1500,1500
9805,2022.00,-1.733325,-1.589381,15039.000000,0.0000000,0.0000000,2000,0,0,0,0,3.00,0.00,0.00,1500,1500,1500,1500
9855,2022.00,-1.740317,-1.589388,21672.000000,0.0000000,0.0000000,2000,0,0,0,0,3.00,0.00,0.00,1500,1500,1500,1500
9905,2022.00,-1.733325,-1.589381,5799.000000,0.0000000,0.0000000,2000,0,0,0,0,3.00,0.00,0.00,1500,1500,1500,1500
9954,2022.00,-1.733325,-1.589381,10808.000000,0.0000000,0.0000000,2000,0,0,0,0,3.00,0.00,0.00,1500,1500,1500,1500
10004,2022.00,-1.740317,-1.589388,13347.000000,0.0000000,0.0000000,2000,0,0,0,0,3.00,0.00,0.00,1500,1500,1500,1500
10055,2022.00,-1.733325,-1.589381,20765.000000,0.0000000,0.0000000,2000,0,0,0,0,3.00,0.00,0.00,1500,1500,1500,1500
10105,2022.00,-1.747310,-1.589396,9119.000000,0.0000000,0.0000000,2000,0,0,0,0,3.00,0.00,0.00,1500,1500,1500,1500
10155,2022.00,-1.747310,-1.589396,16135.000000,0.0000000,0.0000000,2000,0,0,0,0,3.00,0.00,0.00,1500,1500,1500,1500
10204,2022.00,-1.754302,-1.589404,12127.000000,0.0000000,0.0000000,2000,0,0,0,0,3.00,0.00,0.00,1500,1500,1500,1500
10254,2022.00,-1.747310,-1.589396,19546.000000,0.0000000,0.0000000,2000,0,0,0,0,3.00,0.00,0.00,1500,1500,1500,1500
10305,2022.00,-1.747310,-1.589396,14248.000000,0.0000000,0.0000000,2000,0,0,0,0,3.00,0.00,0.00,1500,1500,1500,1500
10355,2022.00,-1.740325,-1.582393,20587.000000,0.0000000,0.0000000,2000,0,0,0,0,3.00,0.00,0.00,1500,1500,1500,1500
10405,2022.00,-1.733228,-1.589486,10527.000000,0.0000000,0.0000000,2000,0,0,0,0,3.00,0.00,0.00,1500,1500,1500,1500
10455,2022.00,-1.733236,-1.582491,12988.000000,0.0000000,0.0000000,2000,0,0,0,0,3.00,0.00,0.00,1500,1500,1500,1500
10505,2022.00,-1.733228,-1.589486,20105.000000,0.0000000,0.0000000,2000,0,0,0,0,3.00,0.00,0.00,1500,1500,1500,1500
10555,2022.00,-1.740220,-1.589494,18439.000000,0.0000000,0.0000000,2000,0,0,0,0,3.00,0.00,0.00,1500,1500,1500,1500
10606,2022.00,-1.733228,-1.589486,18006.000000,0.0000000,0.0000000,2000,0,0,0,0,3.00,0.00,0.00,1500,1500,1500,1500
10656,2022.00,-1.740220,-1.589494,17014.000000,0.0000000,0.0000000,2000,0,0,0,0,3.00,0.00,0.00,1500,1500,1500,1500
10706,2022.00,-1.733228,-1.589486,17183.000000,0.0000000,0.0000000,2000,0,0,0,0,3.00,0.00,0.00,1500,1500,1500,1500
10756,2022.00,-1.733228,-1.589486,18027.000000,0.0000000,0.0000000,2000,0,0,0,0,3.00,0.00,0.00,1500,1500,1500,1500
10805,2022.00,-1.747213,-1.589502,9426.000000,0.0000000,0.0000000,2000,0,0,0,0,3.00,0.00,0.00,1500,1500,1500,1500
10855,2022.00,-1.747213,-1.589502,15097.000000,0.0000000,0.0000000,2000,0,0,0,0,3.00,0.00,0.00,1500,1500,1500,1500
10905,2022.00,-1.740220,-1.589494,20668.000000,0.0000000,0.0000000,2000,0,0,0,0,3.00,0.00,0.00,1500,1500,1500,1500
10956,2022.00,-1.740220,-1.589494,17812.000000,0.0000000,0.0000000,2000,0,0,0,0,3.00,0.00,0.00,1500,1500,1500,1500
11007,2022.00,-1.747221,-1.582507,18879.000000,0.0000000,0.0000000,2000,0,0,0,0,3.00,0.00,0.00,1500,1500,1500,1500
11056,2022.00,-1.747221,-1.582507,7314.000000,0.0000000,0.0000000,2000,0,0,0,0,3.00,0.00,0.00,1500,1500,1500,1500
11104,2022.00,-1.768306,-1.582628,6406.000000,0.0000000,0.0000000,2000,0,0,0,0,3.00,0.00,0.00,1500,1500,1500,1500
11156,2022.00,-1.768306,-1.582628,14613.000000,0.0000000,0.0000000,2000,0,0,0,0,3.00,0.00,0.00,1500,1500,1500,1500
11206,2022.00,-1.775291,-1.589632,18030.000000,0.0000000,0.0000000,2000,0,0,0,0,3.00,0.00,0.00,1500,1500,1500,1500
11255,2022.00,-1.761313,-1.582620,14246.000000,0.0000000,0.0000000,2000,0,0,0,0,3.00,0.00,0.00,1500,1500,1500,1500
11305,2022.00,-1.761313,-1.582620,22851.000000,0.0000000,0.0000000,2000,0,0,0,0,3.00,0.00,0.00,1500,1500,1500,1500
11355,2022.00,-1.754213,-1.582515,14035.000000,0.0000000,0.0000000,2000,0,0,0,0,3.00,0.00,0.00,1500,1500,1500,1500
11405,2022.00,-1.768306,-1.582628,13605.000000,0.0000000,0.0000000,2000,0,0,0,0,3.00,0.00,0.00,1500,1500,1500,1500
11456,2022.00,-1.768306,-1.582628,6234.000000,0.0000000,0.0000000,2000,0,0,0,0,3.00,0.00,0.00,1500,1500,1500,1500
11504,2022.00,-1.754213,-1.582515,11897.000000,0.0000000,0.0000000,2000,0,0,0,0,3.00,0.00,0.00,1500,1500,1500,1500
11555,2022.00,-1.761206,-1.582523,18162.000000,0.0000000,0.0000000,2000,0,0,0,0,3.00,0.00,0.00,1500,1500,1500,1500
11606,2022.00,-1.761206,-1.582523,10284.000000,0.0000000,0.0000000,2000,0,0,0,0,3.00,0.00,0.00,1500,1500,1500,1500
11656,2022.00,-1.761206,-1.582523,6009.000000,0.0000000,0.0000000,2000,0,0,0,0,3.00,0.00,0.00,1500,1500,1500,1500
11706,2022.00,-1.747221,-1.582507,21231.000000,0.0000000,0.0000000,2000,0,0,0,0,3.00,0.00,0.00,1500,1500,1500,1500
11756,2022.00,-1.761313,-1.582620,12216.000000,0.0000000,0.0000000,2000,0,0,0,0,3.00,0.00,0.00,1500,1500,1500,1500
11805,2022.00,-1.761206,-1.582523,12869.000000,0.0000000,0.0000000,2000,0,0,0,0,3.00,0.00,0.00,1500,1500,1500,1500
11854,2022.00,-1.761206,-1.582523,14370.000000,0.0000000,0.0000000,2000,0,0,0,0,3.00,0.00,0.00,1500,1500,1500,1500
11905,2022.00,-1.761206,-1.582523,20011.000000,0.0000000,0.0000000,2000,0,0,0,0,3.00,0.00,0.00,1500,1500,1500,1500
11955,2022.00,-1.761313,-1.582620,10916.000000,0.0000000,0.0000000,2000,0,0,0,0,3.00,0.00,0.00,1500,1500,1500,1500
12005,2022.00,-1.761313,-1.582620,23804.000000,0.0000000,0.0000000,2000,0,0,0,0,3.00,0.00,0.00,1500,1500,1500,1500
12056,2022.00,-1.761313,-1.582620,18565.000000,0.0000000,0.0000000,2000,0,0,0,0,3.00,0.00,0.00,1500,1500,1500,1500
12105,2022.00,-1.775299,-1.582636,14267.000000,0.0000000,0.0000000,2000,0,0,0,0,3.00,0.00,0.00,1500,1500,1500,1500
12154,2022.00,-1.775299,-1.582636,14028.000000,0.0000000,0.0000000,2000,0,0,0,0,3.00,0.00,0.00,1500,1500,1500,1500
12204,2022.00,-1.775299,-1.582636,19006.000000,0.0000000,0.0000000,2000,0,0,0,0,3.00,0.00,0.00,1500,1500,1500,1500
12255,2022.00,-1.768306,-1.582628,17595.000000,0.0000000,0.0000000,2000,0,0,0,0,3.00,0.00,0.00,1500,1500,1500,1500
12305,2022.00,-1.768306,-1.582628,15487.000000,0.0000000,0.0000000,2000,0,0,0,0,3.00,0.00,0.00,1500,1500,1500,1500
12355,2022.00,-1.768306,-1.582628,15275.000000,0.0000000,0.0000000,2000,0,0,0,0,3.00,0.00,0.00,1500,1500,1500,1500
12405,2022.00,-1.761313,-1.582620,20058.000000,0.0000000,0.0000000,2000,0,0,0,0,3.00,0.00,0.00,1500,1500,1500,1500
12455,2022.00,-1.761313,-1.582620,23781.000000,0.0000000,0.0000000,2000,0,0,0,0,3.00,0.00,0.00,1500,1500,1500,1500
12505,2022.00,-1.761313,-1.582620,16028.000000,0.0000000,0.0000000,2000,0,0,0,0,3.00,0.00,0.00,1500,1500,1500,1500
12555,2022.00,-1.761313,-1.582620,14128.000000,0.0000000,0.0000000,2000,0,0,0,0,3.00,0.00,0.00,1500,1500,1500,1500
12605,2022.00,-1.761313,-1.582620,15313.000000,0.0000000,0.0000000,2000,0,0,0,0,3.00,0.00,0.00,1500,1500,1500,1500
12655,2022.00,-1.761313,-1.582620,11178.000000,0.0000000,0.0000000,2000,0,0,0,0,3.00,0.00,0.00,1500,1500,1500,1500
12705,2022.00,-1.768306,-1.582628,15259.000000,0.0000000,0.0000000,2000,0,0,0,0,3.00,0.00,0.00,1500,1500,1500,1500
12755,2022.00,-1.775299,-1.582636,16625.000000,0.0000000,0.0000000,2000,0,0,0,0,3.00,0.00,0.00,1500,1500,1500,1500
12805,2022.00,-1.768298,-1.589624,15410.000000,0.0000000,0.0000000,2000,0,0,0,0,3.00,0.00,0.00,1500,1500,1500,1500
12854,2022.00,-1.761305,-1.589616,14956.000000,0.0000000,0.0000000,2000,0,0,0,0,3.00,0.00,0.00,1500,1500,1500,1500
12905,2022.00,-1.768298,-1.589624,13878.000000,0.0000000,0.0000000,2000,0,0,0,0,3.00,0.00,0.00,1500,1500,1500,1500
13055,2022.00,-1.768298,-1.589624,10347.000000,0.0000000,0.0000000,2000,0,0,0,0,3.00,0.00,0.00,1500,1500,1500,1500
13105,2022.00,-1.768298,-1.589624,19415.000000,0.0000000,0.0000000,2000,0,0,0,0,3.00,0.00,0.00,1500,1500,1500,1500
13155,2022.00,-1.768298,-1.589624,13609.000000,0.0000000,0.0000000,2000,0,0,0,0,3.00,0.00,0.00,1500,1500,1500,1500
13205,2022.00,-1.775291,-1.589632,18214.000000,0.0000000,0.0000000,2000,0,0,0,0,3.00,0.00,0.00,1500,1500,1500,1500
13255,2022.00,-1.775291,-1.589632,12753.000000,0.0000000,0.0000000,2000,0,0,0,0,3.00,0.00,0.00,1500,1500,1500,1500
13305,2022.00,-1.775291,-1.589632,3991.000000,0.0000000,0.0000000,2000,0,0,0,0,3.00,0.00,0.00,1500,1500,1500,1500
13355,2022.00,-1.782283,-1.589640,17309.000000,0.0000000,0.0000000,2000,0,0,0,0,3.00,0.00,0.00,1500,1500,1500,1500
13405,2022.00,-1.761305,-1.589616,20950.000000,0.0000000,0.0000000,2000,0,0,0,0,3.00,0.00,0.00,1500,1500,1500,1500
13456,2022.00,-1.761305,-1.589616,17036.000000,0.0000000,0.0000000,2000,0,0,0,0,3.00,0.00,0.00,1500,1500,1500,1500
13506,2022.00,-1.768306,-1.582628,17091.000000,0.0000000,0.0000000,2000,0,0,0,0,3.00,0.00,0.00,1500,1500,1500,1500
13555,2022.00,-1.768306,-1.582628,15041.000000,0.0000000,0.0000000,2000,0,0,0,0,3.00,0.00,0.00,1500,1500,1500,1500
13606,2022.00,-1.775299,-1.582636,12260.000000,0.0000000,0.0000000,2000,0,0,0,0,3.00,0.00,0.00,1500,1500,1500,1500
13654,2022.00,-1.768306,-1.582628,17899.000000,0.0000000,0.0000000,2000,0,0,0,0,3.00,0.00,0.00,1500,1500,1500,1500
13706,2022.00,-1.754213,-1.582515,21587.000000,0.0000000,0.0000000,2000,0,0,0,0,3.00,0.00,0.00,1500,1500,1500,1500
13756,2022.00,-1.754213,-1.582515,14031.000000,0.0000000,0.0000000,2000,0,0,0,0,3.00,0.00,0.00,1500,1500,1500,1500
13805,2022.00,-1.754213,-1.582515,16129.000000,0.0000000,0.0000000,2000,0,0,0,0,3.00,0.00,0.00,1500,1500,1500,1500
13854,2022.00,-1.747221,-1.582507,14099.000000,0.0000000,0.0000000,2000,0,0,0,0,3.00,0.00,0.00,1500,1500,1500,1500
13904,2022.00,-1.747221,-1.582507,15833.000000,0.0000000,0.0000000,2000,0,0,0,0,3.00,0.00,0.00,1500,1500,1500,1500
13956,2022.00,-1.747221,-1.582507,12162.000000,0.0000000,0.0000000,2000,0,0,0,0,3.00,0.00,0.00,1500,1500,1500,1500
14006,2022.00,-1.747221,-1.582507,7349.000000,0.0000000,0.0000000,2000,0,0,0,0,3.00,0.00,0.00,1500,1500,1500,1500
14056,2022.00,-1.747221,-1.582507,22267.000000,0.0000000,0.0000000,2000,0,0,0,0,3.00,0.00,0.00,1500,1500,1500,1500
14104,2022.00,-1.740228,-1.582499,13242.000000,0.0000000,0.0000000,2000,0,0,0,0,3.00,0.00,0.00,1500,1500,1500,1500
14155,2022.00,-1.754213,-1.582515,13067.000000,0.0000000,0.0000000,2000,0,0,0,0,3.00,0.00,0.00,1500,1500,1500,1500
14206,2022.00,-1.740228,-1.582499,11162.000000,0.0000000,0.0000000,2000,0,0,0,0,3.00,0.00,0.00,1500,1500,1500,1500
14254,2022.00,-1.740228,-1.582499,15146.000000,0.0000000,0.0000000,2000,0,0,0,0,3.00,0.00,0.00,1500,1500,1500,1500
14305,2022.00,-1.740228,-1.582499,19198.000000,0.0000000,0.0000000,2000,0,0,0,0,3.00,0.00,0.00,1500,1500,1500,1500
14354,2022.00,-1.733228,-1.589486,22860.000000,0.0000000,0.0000000,2000,0,0,0,0,3.00,0.00,0.00,1500,1500,1500,1500
14406,2022.00,-1.740220,-1.589494,15081.000000,0.0000000,0.0000000,2000,0,0,0,0,3.00,0.00,0.00,1500,1500,1500,1500
14456,2022.00,-1.733228,-1.589486,22961.000000,0.0000000,0.0000000,2000,0,0,0,0,3.00,0.00,0.00,1500,1500,1500,1500
14506,2022.00,-1.754312,-1.589608,10443.000000,0.0000000,0.0000000,2000,0,0,0,0,3.00,0.00,0.00,1500,1500,1500,1500
14556,2022.00,-1.740220,-1.589494,12262.000000,0.0000000,0.0000000,2000,0,0,0,0,3.00,0.00,0.00,1500,1500,1500,1500
14606,2022.00,-1.747213,-1.589502,11885.000000,0.0000000,0.0000000,2000,0,0,0,0,3.00,0.00,0.00,1500,1500,1500,1500
14657,2022.00,-1.747213,-1.589502,8336.000000,0.0000000,0.0000000,2000,0,0,0,0,3.00,0.00,0.00,1500,1500,1500,1500
14705,2022.00,-1.747213,-1.589502,18585.000000,0.0000000,0.0000000,2000,0,0,0,0,3.00,0.00,0.00,1500,1500,1500,1500
14755,2022.00,-1.761305,-1.589616,11084.000000,0.0000000,0.0000000,2000,0,0,0,0,3.00,0.00,0.00,1500,1500,1500,1500
14806,2022.00,-1.768298,-1.589624,14073.000000,0.0000000,0.0000000,2000,0,0,0,0,3.00,0.00,0.00,1500,1500,1500,1500
14855,2022.00,-1.761305,-1.589616,14580.000000,0.0000000,0.0000000,2000,0,0,0,0,3.00,0.00,0.00,1500,1500,1500,1500
14905,2022.00,-1.775291,-1.589632,9113.000000,0.0000000,0.0000000,2000,0,0,0,0,3.00,0.00,0.00,1500,1500,1500,1500
14955,2022.00,-1.761305,-1.589616,22019.000000,0.0000000,0.0000000,2000,0,0,0,0,3.00,0.00,0.00,1500,1500,1500,1500
15006,2022.00,-1.761305,-1.589616,6733.000000,0.0000000,0.0000000,2000,0,0,0,0,3.00,0.00,0.00,1500,1500,1500,1500
15054,2022.00,-1.761305,-1.589616,15135.000000,0.0000000,0.0000000,2000,0,0,0,0,3.00,0.00,0.00,1500,1500,1500,1500
15105,2022.00,-1.761305,-1.589616,8499.000000,0.0000000,0.0000000,2000,0,0,0,0,3.00,0.00,0.00,1500,1500,1500,1500
15155,192.00,-1.768298,-1.589624,10819.000000,0.0000000,0.0000000,2000,0,0,0,0,3.00,0.00,0.00,1500,1500,1500,1500
15205,192.00,-1.768298,-1.589624,18991.000000,0.0000000,0.0000000,2000,0,0,0,0,3.00,0.00,0.00,1500,1500,1500,1500
15255,192.00,-1.768298,-1.589624,8464.000000,0.0000000,0.0000000,2000,0,0,0,0,3.00,0.00,0.00,1500,1500,1500,1500
15305,192.00,-1.768298,-1.589624,12924.000000,0.0000000,0.0000000,2000,0,0,0,0,3.00,0.00,0.00,1500,1500,1500,1500
15354,192.00,-1.768298,-1.589624,21033.000000,0.0000000,0.0000000,2000,0,0,0,0,3.00,0.00,0.00,1500,1500,1500,1500
15404,192.00,-1.768298,-1.589624,18580.000000,0.0000000,0.0000000,2000,0,0,0,0,3.00,0.00,0.00,1500,1500,1500,1500
15455,192.00,-1.768298,-1.589624,16025.000000,0.0000000,0.0000000,2000,0,0,0,0,3.00,0.00,0.00,1500,1500,1500,1500
15505,192.00,-1.761305,-1.589616,14288.000000,0.0000000,0.0000000,2000,0,0,0,0,3.00,0.00,0.00,1500,1500,1500,1500
15555,192.00,-1.768298,-1.589624,13278.000000,0.0000000,0.0000000,2000,0,0,0,0,3.00,0.00,0.00,1500,1500,1500,1500
15605,192.00,-1.768298,-1.589624,17937.000000,0.0000000,0.0000000,2000,0,0,0,0,3.00,0.00,0.00,1500,1500,1500,1500
15655,192.00,-1.768298,-1.589624,7522.000000,0.0000000,0.0000000,2000,0,0,0,0,3.00,0.00,0.00,1500,1500,1500,1500
15705,192.00,-1.768298,-1.589624,11909.000000,0.0000000,0.0000000,2000,0,0,0,0,3.00,0.00,0.00,1500,1500,1500,1500
15754,192.00,-1.775291,-1.589632,13675.000000,0.0000000,0.0000000,2000,0,0,0,0,3.00,0.00,0.00,1500,1500,1500,1500
15804,192.00,-1.768298,-1.589624,11583.000000,0.0000000,0.0000000,2000,0,0,0,0,3.00,0.00,0.00,1500,1500,1500,1500
15855,192.00,-1.775291,-1.589632,13265.000000,0.0000000,0.0000000,2000,0,0,0,0,3.00,0.00,0.00,1500,1500,1500,1500
15905,192.00,-1.775291,-1.589632,18977.000000,0.0000000,0.0000000,2000,0,0,0,0,3.00,0.00,0.00,1500,1500,1500,1500
15955,192.00,-1.775291,-1.589632,9956.000000,0.0000000,0.0000000,2000,0,0,0,0,3.00,0.00,0.00,1500,1500,1500,1500
16005,192.00,-1.775291,-1.589632,10141.000000,0.0000000,0.0000000,2000,0,0,0,0,3.00,0.00,0.00,1500,1500,1500,1500
16056,192.00,-1.775291,-1.589632,14619.000000,0.0000000,0.0000000,2000,0,0,0,0,3.00,0.00,0.00,1500,1500,1500,1500
16106,192.00,-1.775291,-1.589632,15560.000000,0.0000000,0.0000000,2000,0,0,0,0,3.00,0.00,0.00,1500,1500,1500,1500
16156,192.00,-1.775291,-1.589632,11999.000000,0.0000000,0.0000000,2000,0,0,0,0,3.00,0.00,0.00,1500,1500,1500,1500
16204,192.00,-1.775291,-1.589632,9117.000000,0.0000000,0.0000000,2000,0,0,0,0,3.00,0.00,0.00,1500,1500,1500,1500
16255,192.00,-1.775291,-1.589632,10238.000000,0.0000000,0.0000000,2000,0,0,0,0,3.00,0.00,0.00,1500,1500,1500,1500
16305,192.00,-1.775291,-1.589632,6260.000000,0.0000000,0.0000000,2000,0,0,0,0,3.00,0.00,0.00,1500,1500,1500,1500
16355,192.00,-1.768298,-1.589624,10815.000000,0.0000000,0.0000000,2000,0,0,0,0,3.00,0.00,0.00,1500,1500,1500,1500
16405,192.00,-1.789276,-1.589648,9317.000000,0.0000000,0.0000000,2000,0,0,0,0,3.00,0.00,0.00,1500,1500,1500,1500
16456,192.00,-1.789276,-1.589648,11983.000000,0.0000000,0.0000000,2000,0,0,0,0,3.00,0.00,0.00,1500,1500,1500,1500
16506,192.00,-1.789276,-1.589648,12126.000000,0.0000000,0.0000000,2000,0,0,0,0,3.00,0.00,0.00,1500,1500,1500,1500
16606,192.00,-1.789276,-1.589648,16113.000000,0.0000000,0.0000000,2000,0,0,0,0,3.00,0.00,0.00,1500,1500,1500,1500
16656,192.00,-1.789276,-1.589648,7057.000000,0.0000000,0.0000000,2000,0,0,0,0,3.00,0.00,0.00,1500,1500,1500,1500
16704,192.00,-1.789276,-1.589648,18203.000000,0.0000000,0.0000000,2000,0,0,0,0,3.00,0.00,0.00,1500,1500,1500,1500
16755,192.00,-1.796269,-1.589657,7551.000000,0.0000000,0.0000000,2000,0,0,0,0,3.00,0.00,0.00,1500,1500,1500,1500
16804,192.00,-1.796269,-1.589657,12918.000000,0.0000000,0.0000000,2000,0,0,0,0,3.00,0.00,0.00,1500,1500,1500,1500
16856,192.00,-1.796269,-1.589657,20231.000000,0.0000000,0.0000000,2000,0,0,0,0,3.00,0.00,0.00,1500,1500,1500,1500
16905,192.00,-1.796269,-1.589657,10142.000000,0.0000000,0.0000000,2000,0,0,0,0,3.00,0.00,0.00,1500,1500,1500,1500
16955,192.00,-1.796269,-1.589657,6438.000000,0.0000000,0.0000000,2000,0,0,0,0,3.00,0.00,0.00,1500,1500,1500,1500
17005,192.00,-1.796269,-1.589657,14817.000000,0.0000000,0.0000000,2000,0,0,0,0,3.00,0.00,0.00,1500,1500,1500,1500
17055,192.00,-1.796269,-1.589657,8199.000000,0.0000000,0.0000000,2000,0,0,0,0,3.00,0.00,0.00,1500,1500,1500,1500
17105,192.00,-1.789276,-1.589648,16490.000000,0.0000000,0.0000000,2000,0,0,0,0,3.00,0.00,0.00,1500,1500,1500,1500
17154,192.00,-1.789276,-1.589648,17894.000000,0.0000000,0.0000000,2000,0,0,0,0,3.00,0.00,0.00,1500,1500,1500,1500
17205,192.00,-1.789276,-1.589648,16207.000000,0.0000000,0.0000000,2000,0,0,0,0,3.00,0.00,0.00,1500,1500,1500,1500
17255,192.00,-1.789276,-1.589648,12033.000000,0.0000000,0.0000000,2000,0,0,0,0,3.00,0.00,0.00,1500,1500,1500,1500
17305,192.00,-1.796269,-1.589657,7091.000000,0.0000000,0.0000000,2000,0,0,0,0,3.00,0.00,0.00,1500,1500,1500,1500
17355,192.00,-1.796269,-1.589657,8517.000000,0.0000000,0.0000000,2000,0,0,0,0,3.00,0.00,0.00,1500,1500,1500,1500
17405,192.00,-1.796269,-1.589657,16742.000000,0.0000000,0.0000000,2000,0,0,0,0,3.00,0.00,0.00,1500,1500,1500,1500
17454,192.00,-1.796269,-1.589657,16639.000000,0.0000000,0.0000000,2000,0,0,0,0,3.00,0.00,0.00,1500,1500,1500,1500
17505,192.00,-1.796269,-1.589657,16209.000000,0.0000000,0.0000000,2000,0,0,0,0,3.00,0.00,0.00,1500,1500,1500,1500
17555,192.00,-1.796269,-1.589657,13800.000000,0.0000000,0.0000000,2000,0,0,0,0,3.00,0.00,0.00,1500,1500,1500,1500
17604,192.00,-1.796269,-1.589657,12993.000000,0.0000000,0.0000000,2000,0,0,0,0,3.00,0.00,0.00,1500,1500,1500,1500
17655,192.00,-1.796269,-1.589657,21863.000000,0.0000000,0.0000000,2000,0,0,0,0,3.00,0.00,0.00,1500,1500,1500,1500
17705,192.00,-1.796269,-1.589657,22076.000000,0.0000000,0.0000000,2000,0,0,0,0,3.00,0.00,0.00,1500,1500,1500,1500
17755,192.00,-1.796269,-1.589657,8241.000000,0.0000000,0.0000000,2000,0,0,0,0,3.00,0.00,0.00,1500,1500,1500,1500
17805,192.00,-1.796269,-1.589657,18142.000000,0.0000000,0.0000000,2000,0,0,0,0,3.00,0.00,0.00,1500,1500,1500,1500
17854,192.00,-1.796269,-1.589657,13780.000000,0.0000000,0.0000000,2000,0,0,0,0,3.00,0.00,0.00,1500,1500,1500,1500
17905,192.00,-1.796269,-1.589657,8782.000000,0.0000000,0.0000000,2000,0,0,0,0,3.00,0.00,0.00,1500,1500,1500,1500
17955,192.00,-1.796269,-1.589657,12727.000000,0.0000000,0.0000000,2000,0,0,0,0,3.00,0.00,0.00,1500,1500,1500,1500
18005,192.00,-1.796269,-1.589657,11356.000000,0.0000000,0.0000000,2000,0,0,0,0,3.00,0.00,0.00,1500,1500,1500,1500
18054,192.00,-1.796269,-1.589657,16282.000000,0.0000000,0.0000000,2000,0,0,0,0,3.00,0.00,0.00,1500,1500,1500,1500
18104,192.00,-1.796269,-1.589657,12787.000000,0.0000000,0.0000000,2000,0,0,0,0,3.00,0.00,0.00,1500,1500,1500,1500
18155,192.00,-1.796269,-1.589657,10234.000000,0.0000000,0.0000000,2000,0,0,0,0,3.00,0.00,0.00,1500,1500,1500,1500
18204,192.00,-1.796269,-1.589657,8426.000000,0.0000000,0.0000000,2000,0,0,0,0,3.00,0.00,0.00,1500,1500,1500,1500
18254,192.00,-1.796269,-1.589657,14457.000000,0.0000000,0.0000000,2000,0,0,0,0,3.00,0.00,0.00,1500,1500,1500,1500
18304,192.00,-1.796269,-1.589657,9425.000000,0.0000000,0.0000000,2000,0,0,0,0,3.00,0.00,0.00,1500,1500,1500,1500
18355,192.00,-1.796269,-1.589657,8682.000000,0.0000000,0.0000000,2000,0,0,0,0,3.00,0.00,0.00,1500,1500,1500,1500
18405,192.00,-1.796269,-1.589657,12311.000000,0.0000000,0.0000000,2000,0,0,0,0,3.00,0.00,0.00,1500,1500,1500,1500
18454,192.00,-1.796269,-1.589657,18172.000000,0.0000000,0.0000000,2000,0,0,0,0,3.00,0.00,0.00,1500,1500,1500,1500
18505,192.00,-1.796269,-1.589657,5200.000000,0.0000000,0.0000000,2000,0,0,0,0,3.00,0.00,0.00,1500,1500,1500,1500
18555,192.00,-1.796269,-1.589657,19622.000000,0.0000000,0.0000000,2000,0,0,0,0,3.00,0.00,0.00,1500,1500,1500,1500
18604,192.00,-1.796269,-1.589657,8206.000000,0.0000000,0.0000000,2000,0,0,0,0,3.00,0.00,0.00,1500,1500,1500,1500
18654,192.00,-1.796269,-1.589657,15283.000000,0.0000000,0.0000000,2000,0,0,0,0,3.00,0.00,0.00,1500,1500,1500,1500
18705,192.00,-1.796269,-1.589657,8344.000000,0.0000000,0.0000000,2000,0,0,0,0,3.00,0.00,0.00,1500,1500,1500,1500
18755,192.00,-1.803262,-1.589665,14025.000000,0.0000000,0.0000000,2000,0,0,0,0,3.00,0.00,0.00,1500,1500,1500,1500
18805,192.00,-1.810254,-1.589673,8104.000000,0.0000000,0.0000000,2000,0,0,0,0,3.00,0.00,0.00,1500,1500,1500,1500
18855,192.00,-1.810254,-1.589673,12494.000000,0.0000000,0.0000000,2000,0,0,0,0,3.00,0.00,0.00,1500,1500,1500,1500
18905,192.00,-1.810254,-1.589673,10221.000000,0.0000000,0.0000000,2000,0,0,0,0,3.00,0.00,0.00,1500,1500,1500,1500
18955,192.00,-1.810254,-1.589673,19007.000000,0.0000000,0.0000000,2000,0,0,0,0,3.00,0.00,0.00,1500,1500,1500,1500
19005,192.00,-1.810254,-1.589673,13932.000000,0.0000000,0.0000000,2000,0,0,0,0,3.00,0.00,0.00,1500,1500,1500,1500
19054,192.00,-1.810254,-1.589673,8319.000000,0.0000000,0.0000000,2000,0,0,0,0,3.00,0.00,0.00,1500,1500,1500,1500
19105,192.00,-1.810254,-1.589673,11906.000000,0.0000000,0.0000000,2000,0,0,0,0,3.00,0.00,0.00,1500,1500,1500,1500
19154,192.00,-1.810254,-1.589673,16847.000000,0.0000000,0.0000000,2000,0,0,0,0,3.00,0.00,0.00,1500,1500,1500,1500
19205,192.00,-1.810254,-1.589673,13565.000000,0.0000000,0.0000000,2000,0,0,0,0,3.00,0.00,0.00,1500,1500,1500,1500
19255,192.00,-1.810254,-1.589673,14490.000000,0.0000000,0.0000000,2000,0,0,0,0,3.00,0.00,0.00,1500,1500,1500,1500
19306,192.00,-1.810254,-1.589673,12271.000000,0.0000000,0.0000000,2000,0,0,0,0,3.00,0.00,0.00,1500,1500,1500,1500
19356,192.00,-1.810254,-1.589673,12194.000000,0.0000000,0.0000000,2000,0,0,0,0,3.00,0.00,0.00,1500,1500,1500,1500
19407,192.00,-1.810254,-1.589673,14914.000000,0.0000000,0.0000000,2000,0,0,0,0,3.00,0.00,0.00,1500,1500,1500,1500
19456,192.00,-1.810254,-1.589673,14801.000000,0.0000000,0.0000000,2000,0,0,0,0,3.00,0.00,0.00,1500,1500,1500,1500
19504,192.00,-1.810254,-1.589673,5113.000000,0.0000000,0.0000000,2000,0,0,0,0,3.00,0.00,0.00,1500,1500,1500,1500
19555,192.00,-1.810254,-1.589673,3857.000000,0.0000000,0.0000000,2000,0,0,0,0,3.00,0.00,0.00,1500,1500,1500,1500
19605,192.00,-1.810254,-1.589673,10301.000000,0.0000000,0.0000000,2000,0,0,0,0,3.00,0.00,0.00,1500,1500,1500,1500
19656,192.00,-1.810254,-1.589673,9972.000000,0.0000000,0.0000000,2000,0,0,0,0,3.00,0.00,0.00,1500,1500,1500,1500
19704,192.00,-1.810254,-1.589673,15332.000000,0.0000000,0.0000000,2000,0,0,0,0,3.00,0.00,0.00,1500,1500,1500,1500
19754,192.00,-1.810254,-1.589673,10420.000000,0.0000000,0.0000000,2000,0,0,0,0,3.00,0.00,0.00,1500,1500,1500,1500
19806,192.00,-1.810254,-1.589673,16888.000000,0.0000000,0.0000000,2000,0,0,0,0,3.00,0.00,0.00,1500,1500,1500,1500
19856,192.00,-1.810254,-1.589673,18817.000000,0.0000000,0.0000000,2000,0,0,0,0,3.00,0.00,0.00,1500,1500,1500,1500
19905,192.00,-1.810254,-1.589673,21091.000000,0.0000000,0.0000000,2000,0,0,0,0,3.00,0.00,0.00,1500,1500,1500,1500
19956,192.00,-1.810254,-1.589673,17236.000000,0.0000000,0.0000000,2000,0,0,0,0,3.00,0.00,0.00,1500,1500,1500,1500
20005,192.00,-1.810254,-1.589673,17758.000000,0.0000000,0.0000000,2000,0,0,0,0,3.00,0.00,0.00,1500,1500,1500,1500
20055,192.00,-1.810254,-1.589673,12997.000000,0.0000000,0.0000000,2000,0,0,0,0,3.00,0.00,0.00,1500,1500,1500,1500
20104,192.00,-1.810254,-1.589673,20951.000000,0.0000000,0.0000000,2000,0,0,0,0,3.00,0.00,0.00,1500,1500,1500,1500
20206,192.00,-1.810254,-1.589673,18357.000000,0.0000000,0.0000000,2000,0,0,0,0,3.00,0.00,0.00,1500,1500,1500,1500
20257,192.00,-1.810254,-1.589673,15505.000000,0.0000000,0.0000000,2000,0,0,0,0,3.00,0.00,0.00,1500,1500,1500,1500
20305,192.00,-1.810254,-1.589673,10977.000000,0.0000000,0.0000000,2000,0,0,0,0,3.00,0.00,0.00,1500,1500,1500,1500
20354,192.00,-1.810254,-1.589673,13274.000000,0.0000000,0.0000000,2000,0,0,0,0,3.00,0.00,0.00,1500,1500,1500,1500
20405,192.00,-1.810254,-1.589673,16260.000000,0.0000000,0.0000000,2000,0,0,0,0,3.00,0.00,0.00,1500,1500,1500,1500
20455,192.00,-1.810254,-1.589673,15742.000000,0.0000000,0.0000000,2000,0,0,0,0,3.00,0.00,0.00,1500,1500,1500,1500
20506,192.00,-1.810254,-1.589673,20323.000000,0.0000000,0.0000000,2000,0,0,0,0,3.00,0.00,0.00,1500,1500,1500,1500
20555,192.00,-1.810254,-1.589673,12326.000000,0.0000000,0.0000000,2000,0,0,0,0,3.00,0.00,0.00,1500,1500,1500,1500
20606,192.00,-1.810254,-1.589673,8976.000000,0.0000000,0.0000000,2000,0,0,0,0,3.00,0.00,0.00,1500,1500,1500,1500
20656,192.00,-1.810254,-1.589673,15690.000000,0.0000000,0.0000000,2000,0,0,0,0,3.00,0.00,0.00,1500,1500,1500,1500
20705,192.00,-1.817247,-1.589681,14089.000000,0.0000000,0.0000000,2000,0,0,0,0,3.00,0.00,0.00,1500,1500,1500,1500
20754,192.00,-1.817247,-1.589681,14081.000000,0.0000000,0.0000000,2000,0,0,0,0,3.00,0.00,0.00,1500,1500,1500,1500
20805,192.00,-1.817247,-1.589681,8540.000000,0.0000000,0.0000000,2000,0,0,0,0,3.00,0.00,0.00,1500,1500,1500,1500
20855,192.00,-1.824240,-1.589689,7037.000000,0.0000000,0.0000000,2000,0,0,0,0,3.00,0.00,0.00,1500,1500,1500,1500
20905,192.00,-1.824240,-1.589689,10400.000000,0.0000000,0.0000000,2000,0,0,0,0,3.00,0.00,0.00,1500,1500,1500,1500
20954,192.00,-1.824240,-1.589689,24747.000000,0.0000000,0.0000000,2000,0,0,0,0,3.00,0.00,0.00,1500,1500,1500,1500
21005,192.00,-1.824240,-1.589689,12459.000000,0.0000000,0.0000000,2000,0,0,0,0,3.00,0.00,0.00,1500,1500,1500,1500
21054,192.00,-1.824240,-1.589689,8291.000000,0.0000000,0.0000000,2000,0,0,0,0,3.00,0.00,0.00,1500,1500,1500,1500
21105,192.00,-1.824240,-1.589689,17920.000000,0.0000000,0.0000000,2000,0,0,0,0,3.00,0.00,0.00,1500,1500,1500,1500
21405,192.00,-1.817247,-1.589681,16281.000000,0.0000000,0.0000000,2000,0,0,0,0,3.00,0.00,0.00,1500,1500,1500,1500
21605,192.00,-1.817247,-1.589681,9685.000000,0.0000000,0.0000000,2000,0,0,0,0,3.00,0.00,0.00,1500,1500,1500,1500
21655,192.00,-1.817247,-1.589681,14181.000000,0.0000000,0.0000000,2000,0,0,0,0,3.00,0.00,0.00,1500,1500,1500,1500
21705,192.00,-1.817247,-1.589681,12647.000000,0.0000000,0.0000000,2000,0,0,0,0,3.00,0.00,0.00,1500,1500,1500,1500
21754,192.00,-1.817247,-1.589681,14585.000000,0.0000000,0.0000000,2000,0,0,0,0,3.00,0.00,0.00,1500,1500,1500,1500
21805,192.00,-1.817247,-1.589681,9000.000000,0.0000000,0.0000000,2000,0,0,0,0,3.00,0.00,0.00,1500,1500,1500,1500
21855,192.00,-1.817247,-1.589681,19385.000000,0.0000000,0.0000000,2000,0,0,0,0,3.00,0.00,0.00,1500,1500,1500,1500
21905,192.00,-1.817247,-1.589681,7081.000000,0.0000000,0.0000000,2000,0,0,0,0,3.00,0.00,0.00,1500,1500,1500,1500
21954,192.00,-1.817247,-1.589681,9082.000000,0.0000000,0.0000000,2000,0,0,0,0,3.00,0.00,0.00,1500,1500,1500,1500
22005,192.00,-1.810254,-1.589673,11091.000000,0.0000000,0.0000000,2000,0,0,0,0,3.00,0.00,0.00,1500,1500,1500,1500
22055,192.00,-1.810254,-1.589673,20041.000000,0.0000000,0.0000000,2000,0,0,0,0,3.00,0.00,0.00,1500,1500,1500,1500
22106,192.00,-1.803262,-1.589665,10384.000000,0.0000000,0.0000000,2000,0,0,0,0,3.00,0.00,0.00,1500,1500,1500,1500
22156,192.00,-1.803262,-1.589665,19239.000000,0.0000000,0.0000000,2000,0,0,0,0,3.00,0.00,0.00,1500,1500,1500,1500
22205,192.00,-1.803262,-1.589665,7104.000000,0.0000000,0.0000000,2000,0,0,0,0,3.00,0.00,0.00,1500,1500,1500,1500
22255,192.00,-1.803262,-1.589665,13996.000000,0.0000000,0.0000000,2000,0,0,0,0,3.00,0.00,0.00,1500,1500,1500,1500
22306,192.00,-1.803262,-1.589665,19146.000000,0.0000000,0.0000000,2000,0,0,0,0,3.00,0.00,0.00,1500,1500,1500,1500
22355,192.00,-1.803262,-1.589665,10446.000000,0.0000000,0.0000000,2000,0,0,0,0,3.00,0.00,0.00,1500,1500,1500,1500
22407,192.00,-1.803262,-1.589665,12877.000000,0.0000000,0.0000000,2000,0,0,0,0,3.00,0.00,0.00,1500,1500,1500,1500
22454,192.00,-1.803262,-1.589665,26270.000000,0.0000000,0.0000000,2000,0,0,0,0,3.00,0.00,0.00,1500,1500,1500,1500
22504,192.00,-1.803262,-1.589665,20325.000000,0.0000000,0.0000000,2000,0,0,0,0,3.00,0.00,0.00,1500,1500,1500,1500
22555,192.00,-1.803262,-1.589665,21360.000000,0.0000000,0.0000000,2000,0,0,0,0,3.00,0.00,0.00,1500,1500,1500,1500
22605,192.00,-1.803262,-1.589665,17891.000000,0.0000000,0.0000000,2000,0,0,0,0,3.00,0.00,0.00,1500,1500,1500,1500
22655,192.00,-1.803262,-1.589665,13180.000000,0.0000000,0.0000000,2000,0,0,0,0,3.00,0.00,0.00,1500,1500,1500,1500
22705,192.00,-1.803262,-1.589665,14589.000000,0.0000000,0.0000000,2000,0,0,0,0,3.00,0.00,0.00,1500,1500,1500,1500
22756,192.00,-1.803262,-1.589665,10524.000000,0.0000000,0.0000000,2000,0,0,0,0,3.00,0.00,0.00,1500,1500,1500,1500
22805,192.00,-1.803262,-1.589665,13943.000000,0.0000000,0.0000000,2000,0,0,0,0,3.00,0.00,0.00,1500,1500,1500,1500
22855,192.00,-1.803262,-1.589665,18027.000000,0.0000000,0.0000000,2000,0,0,0,0,3.00,0.00,0.00,1500,1500,1500,1500
22905,192.00,-1.810254,-1.589673,9509.000000,0.0000000,0.0000000,2000,0,0,0,0,3.00,0.00,0.00,1500,1500,1500,1500
22954,192.00,-1.810254,-1.589673,13111.000000,0.0000000,0.0000000,2000,0,0,0,0,3.00,0.00,0.00,1500,1500,1500,1500
23004,192.00,-1.810254,-1.589673,15510.000000,0.0000000,0.0000000,2000,0,0,0,0,3.00,0.00,0.00,1500,1500,1500,1500
23055,192.00,-1.810254,-1.589673,12648.000000,0.0000000,0.0000000,2000,0,0,0,0,3.00,0.00,0.00,1500,1500,1500,1500
23105,192.00,-1.810254,-1.589673,13233.000000,0.0000000,0.0000000,2000,0,0,0,0,3.00,0.00,0.00,1500,1500,1500,1500
23155,192.00,-1.810254,-1.589673,13786.000000,0.0000000,0.0000000,2000,0,0,0,0,3.00,0.00,0.00,1500,1500,1500,1500
23205,192.00,-1.810254,-1.589673,7304.000000,0.0000000,0.0000000,2000,0,0,0,0,3.00,0.00,0.00,1500,1500,1500,1500
23255,192.00,-1.810254,-1.589673,10310.000000,0.0000000,0.0000000,2000,0,0,0,0,3.00,0.00,0.00,1500,1500,1500,1500
23305,192.00,-1.810254,-1.589673,23573.000000,0.0000000,0.0000000,2000,0,0,0,0,3.00,0.00,0.00,1500,1500,1500,1500
23355,192.00,-1.810254,-1.589673,11245.000000,0.0000000,0.0000000,2000,0,0,0,0,3.00,0.00,0.00,1500,1500,1500,1500
23406,192.00,-1.810254,-1.589673,21800.000000,0.0000000,0.0000000,2000,0,0,0,0,3.00,0.00,0.00,1500,1500,1500,1500
23454,192.00,-1.817247,-1.589681,9130.000000,0.0000000,0.0000000,2000,0,0,0,0,3.00,0.00,0.00,1500,1500,1500,1500
23505,192.00,-1.817247,-1.589681,12422.000000,0.0000000,0.0000000,2000,0,0,0,0,3.00,0.00,0.00,1500,1500,1500,1500
23555,192.00,-1.810254,-1.589673,11558.000000,0.0000000,0.0000000,2000,0,0,0,0,3.00,0.00,0.00,1500,1500,1500,1500
23605,192.00,-1.803262,-1.589665,14071.000000,0.0000000,0.0000000,2000,0,0,0,0,3.00,0.00,0.00,1500,1500,1500,1500
23654,192.00,-1.803262,-1.589665,14478.000000,0.0000000,0.0000000,2000,0,0,0,0,3.00,0.00,0.00,1500,1500,1500,1500
23705,192.00,-1.803262,-1.589665,13198.000000,0.0000000,0.0000000,2000,0,0,0,0,3.00,0.00,0.00,1500,1500,1500,1500
23754,192.00,-1.803262,-1.589665,13113.000000,0.0000000,0.0000000,2000,0,0,0,0,3.00,0.00,0.00,1500,1500,1500,1500
23805,192.00,-1.803262,-1.589665,13902.000000,0.0000000,0.0000000,2000,0,0,0,0,3.00,0.00,0.00,1500,1500,1500,1500
23855,192.00,-1.803262,-1.589665,14224.000000,0.0000000,0.0000000,2000,0,0,0,0,3.00,0.00,0.00,1500,1500,1500,1500
23905,192.00,-1.803262,-1.589665,12885.000000,0.0000000,0.0000000,2000,0,0,0,0,3.00,0.00,0.00,1500,1500,1500,1500
23955,192.00,-1.803262,-1.589665,11249.000000,0.0000000,0.0000000,2000,0,0,0,0,3.00,0.00,0.00,1500,1500,1500,1500
24005,192.00,-1.803262,-1.589665,14072.000000,0.0000000,0.0000000,2000,0,0,0,0,3.00,0.00,0.00,1500,1500,1500,1500
24055,192.00,-1.803262,-1.589665,12993.000000,0.0000000,0.0000000,2000,0,0,0,0,3.00,0.00,0.00,1500,1500,1500,1500
24205,192.00,-1.803262,-1.589665,11311.000000,0.0000000,0.0000000,2000,0,0,0,0,3.00,0.00,0.00,1500,1500,1500,1500
24255,192.00,-1.803262,-1.589665,21144.000000,0.0000000,0.0000000,2000,0,0,0,0,3.00,0.00,0.00,1500,1500,1500,1500
24305,192.00,-1.796269,-1.589657,15844.000000,0.0000000,0.0000000,2000,0,0,0,0,3.00,0.00,0.00,1500,1500,1500,1500
24355,192.00,-1.796269,-1.589657,21962.000000,0.0000000,0.0000000,2000,0,0,0,0,3.00,0.00,0.00,1500,1500,1500,1500
24405,192.00,-1.796269,-1.589657,17907.000000,0.0000000,0.0000000,2000,0,0,0,0,3.00,0.00,0.00,1500,1500,1500,1500
24455,192.00,-1.796269,-1.589657,7344.000000,0.0000000,0.0000000,2000,0,0,0,0,3.00,0.00,0.00,1500,1500,1500,1500
24505,192.00,-1.796269,-1.589657,14081.000000,0.0000000,0.0000000,2000,0,0,0,0,3.00,0.00,0.00,1500,1500,1500,1500
24554,192.00,-1.796269,-1.589657,13266.000000,0.0000000,0.0000000,2000,0,0,0,0,3.00,0.00,0.00,1500,1500,1500,1500
24605,192.00,-1.796269,-1.589657,12395.000000,0.0000000,0.0000000,2000,0,0,0,0,3.00,0.00,0.00,1500,1500,1500,1500
24655,192.00,-1.796269,-1.589657,22879.000000,0.0000000,0.0000000,2000,0,0,0,0,3.00,0.00,0.00,1500,1500,1500,1500
24704,192.00,-1.796269,-1.589657,14032.000000,0.0000000,0.0000000,2000,0,0,0,0,3.00,0.00,0.00,1500,1500,1500,1500
24754,192.00,-1.796269,-1.589657,15209.000000,0.0000000,0.0000000,2000,0,0,0,0,3.00,0.00,0.00,1500,1500,1500,1500
24805,192.00,-1.796269,-1.589657,16309.000000,0.0000000,0.0000000,2000,0,0,0,0,3.00,0.00,0.00,1500,1500,1500,1500
24855,192.00,-1.796269,-1.589657,21827.000000,0.0000000,0.0000000,2000,0,0,0,0,3.00,0.00,0.00,1500,1500,1500,1500
24906,192.00,-1.796269,-1.589657,12992.000000,0.0000000,0.0000000,2000,0,0,0,0,3.00,0.00,0.00,1500,1500,1500,1500
24955,192.00,-1.796269,-1.589657,18804.000000,0.0000000,0.0000000,2000,0,0,0,0,3.00,0.00,0.00,1500,1500,1500,1500
25006,192.00,-1.803262,-1.589665,17379.000000,0.0000000,0.0000000,2000,0,0,0,0,3.00,0.00,0.00,1500,1500,1500,1500
25056,192.00,-1.803262,-1.589665,8291.000000,0.0000000,0.0000000,2000,0,0,0,0,3.00,0.00,0.00,1500,1500,1500,1500
25105,192.00,-1.803262,-1.589665,15776.000000,0.0000000,0.0000000,2000,0,0,0,0,3.00,0.00,0.00,1500,1500,1500,1500
25154,192.00,-1.803262,-1.589665,15022.000000,0.0000000,0.0000000,2000,0,0,0,0,3.00,0.00,0.00,1500,1500,1500,1500
25206,192.00,-1.803262,-1.589665,20285.000000,0.0000000,0.0000000,2000,0,0,0,0,3.00,0.00,0.00,1500,1500,1500,1500
25256,192.00,-1.803262,-1.589665,13461.000000,0.0000000,0.0000000,2000,0,0,0,0,3.00,0.00,0.00,1500,1500,1500,1500
25305,192.00,-1.803262,-1.589665,19241.000000,0.0000000,0.0000000,2000,0,0,0,0,3.00,0.00,0.00,1500,1500,1500,1500
25356,192.00,-1.810254,-1.589673,11967.000000,0.0000000,0.0000000,2000,0,0,0,0,3.00,0.00,0.00,1500,1500,1500,1500
25405,192.00,-1.810254,-1.589673,17010.000000,0.0000000,0.0000000,2000,0,0,0,0,3.00,0.00,0.00,1500,1500,1500,1500
25455,192.00,-1.810254,-1.589673,21977.000000,0.0000000,0.0000000,2000,0,0,0,0,3.00,0.00,0.00,1500,1500,1500,1500
25505,192.00,-1.810254,-1.589673,25041.000000,0.0000000,0.0000000,2000,0,0,0,0,3.00,0.00,0.00,1500,1500,1500,1500
25555,192.00,-1.810254,-1.589673,16177.000000,0.0000000,0.0000000,2000,0,0,0,0,3.00,0.00,0.00,1500,1500,1500,1500
25605,192.00,-1.810254,-1.589673,23350.000000,0.0000000,0.0000000,2000,0,0,0,0,3.00,0.00,0.00,1500,1500,1500,1500
25655,192.00,-1.810254,-1.589673,19309.000000,0.0000000,0.0000000,2000,0,0,0,0,3.00,0.00,0.00,1500,1500,1500,1500
25704,192.00,-1.810254,-1.589673,13159.000000,0.0000000,0.0000000,2000,0,0,0,0,3.00,0.00,0.00,1500,1500,1500,1500
25755,192.00,-1.810254,-1.589673,13042.000000,0.0000000,0.0000000,2000,0,0,0,0,3.00,0.00,0.00,1500,1500,1500,1500
25805,192.00,-1.810254,-1.589673,10556.000000,0.0000000,0.0000000,2000,0,0,0,0,3.00,0.00,0.00,1500,1500,1500,1500
25855,192.00,-1.810254,-1.589673,18324.000000,0.0000000,0.0000000,2000,0,0,0,0,3.00,0.00,0.00,1500,1500,1500,1500
25906,192.00,-1.810254,-1.589673,14853.000000,0.0000000,0.0000000,2000,0,0,0,0,3.00,0.00,0.00,1500,1500,1500,1500
25955,192.00,-1.810254,-1.589673,14784.000000,0.0000000,0.0000000,2000,0,0,0,0,3.00,0.00,0.00,1500,1500,1500,1500
26006,192.00,-1.810254,-1.589673,18951.000000,0.0000000,0.0000000,2000,0,0,0,0,3.00,0.00,0.00,1500,1500,1500,1500
26056,192.00,-1.810254,-1.589673,19489.000000,0.0000000,0.0000000,2000,0,0,0,0,3.00,0.00,0.00,1500,1500,1500,1500
26105,192.00,-1.810254,-1.589673,10800.000000,0.0000000,0.0000000,2000,0,0,0,0,3.00,0.00,0.00,1500,1500,1500,1500
26155,192.00,-1.810254,-1.589673,12147.000000,0.0000000,0.0000000,2000,0,0,0,0,3.00,0.00,0.00,1500,1500,1500,1500
26207,192.00,-1.810254,-1.589673,9439.000000,0.0000000,0.0000000,2000,0,0,0,0,3.00,0.00,0.00,1500,1500,1500,1500
26256,192.00,-1.810254,-1.589673,11963.000000,0.0000000,0.0000000,2000,0,0,0,0,3.00,0.00,0.00,1500,1500,1500,1500
26305,192.00,-1.810254,-1.589673,19021.000000,0.0000000,0.0000000,2000,0,0,0,0,3.00,0.00,0.00,1500,1500,1500,1500
26354,192.00,-1.810254,-1.589673,14106.000000,0.0000000,0.0000000,2000,0,0,0,0,3.00,0.00,0.00,1500,1500,1500,1500
26406,192.00,-1.810254,-1.589673,11978.000000,0.0000000,0.0000000,2000,0,0,0,0,3.00,0.00,0.00,1500,1500,1500,1500
26455,192.00,-1.810254,-1.589673,26056.000000,0.0000000,0.0000000,2000,0,0,0,0,3.00,0.00,0.00,1500,1500,1500,1500
26504,192.00,-1.810254,-1.589673,18785.000000,0.0000000,0.0000000,2000,0,0,0,0,3.00,0.00,0.00,1500,1500,1500,1500
26555,192.00,-1.810254,-1.589673,18927.000000,0.0000000,0.0000000,2000,0,0,0,0,3.00,0.00,0.00,1500,1500,1500,1500
26604,192.00,-1.810254,-1.589673,12395.000000,0.0000000,0.0000000,2000,0,0,0,0,3.00,0.00,0.00,1500,1500,1500,1500
26655,192.00,-1.796269,-1.589657,11246.000000,0.0000000,0.0000000,2000,0,0,0,0,3.00,0.00,0.00,1500,1500,1500,1500
26705,192.00,-1.796269,-1.589657,12001.000000,0.0000000,0.0000000,2000,0,0,0,0,3.00,0.00,0.00,1500,1500,1500,1500
26755,192.00,-1.796269,-1.589657,15806.000000,0.0000000,0.0000000,2000,0,0,0,0,3.00,0.00,0.00,1500,1500,1500,1500
26805,192.00,-1.796269,-1.589657,15216.000000,0.0000000,0.0000000,2000,0,0,0,0,3.00,0.00,0.00,1500,1500,1500,1500
26854,192.00,-1.796269,-1.589657,19302.000000,0.0000000,0.0000000,2000,0,0,0,0,3.00,0.00,0.00,1500,1500,1500,1500
26904,192.00,-1.796269,-1.589657,11978.000000,0.0000000,0.0000000,2000,0,0,0,0,3.00,0.00,0.00,1500,1500,1500,1500
26955,192.00,-1.796269,-1.589657,22362.000000,0.0000000,0.0000000,2000,0,0,0,0,3.00,0.00,0.00,1500,1500,1500,1500
27005,192.00,-1.796269,-1.589657,16283.000000,0.0000000,0.0000000,2000,0,0,0,0,3.00,0.00,0.00,1500,1500,1500,1500
27055,192.00,-1.796269,-1.589657,8235.000000,0.0000000,0.0000000,2000,0,0,0,0,3.00,0.00,0.00,1500,1500,1500,1500
27105,192.00,-1.796269,-1.589657,14244.000000,0.0000000,0.0000000,2000,0,0,0,0,3.00,0.00,0.00,1500,1500,1500,1500
27155,192.00,-1.796269,-1.589657,21095.000000,0.0000000,0.0000000,2000,0,0,0,0,3.00,0.00,0.00,1500,1500,1500,1500
27205,192.00,-1.796269,-1.589657,13669.000000,0.0000000,0.0000000,2000,0,0,0,0,3.00,0.00,0.00,1500,1500,1500,1500
27255,192.00,-1.796269,-1.589657,16102.000000,0.0000000,0.0000000,2000,0,0,0,0,3.00,0.00,0.00,1500,1500,1500,1500
27305,192.00,-1.796269,-1.589657,10090.000000,0.0000000,0.0000000,2000,0,0,0,0,3.00,0.00,0.00,1500,1500,1500,1500
27355,192.00,-1.796269,-1.589657,8813.000000,0.0000000,0.0000000,2000,0,0,0,0,3.00,0.00,0.00,1500,1500,1500,1500
27405,192.00,-1.796269,-1.589657,11391.000000,0.0000000,0.0000000,2000,0,0,0,0,3.00,0.00,0.00,1500,1500,1500,1500
27455,192.00,-1.796269,-1.589657,14076.000000,0.0000000,0.0000000,2000,0,0,0,0,3.00,0.00,0.00,1500,1500,1500,1500
27505,192.00,-1.796269,-1.589657,8117.000000,0.0000000,0.0000000,2000,0,0,0,0,3.00,0.00,0.00,1500,1500,1500,1500
27554,192.00,-1.796269,-1.589657,6463.000000,0.0000000,0.0000000,2000,0,0,0,0,3.00,0.00,0.00,1500,1500,1500,1500
27604,192.00,-1.796269,-1.589657,23554.000000,0.0000000,0.0000000,2000,0,0,0,0,3.00,0.00,0.00,1500,1500,1500,1500
27655,192.00,-1.789276,-1.589648,14427.000000,0.0000000,0.0000000,2000,0,0,0,0,3.00,0.00,0.00,1500,1500,1500,1500
27805,192.00,-1.789276,-1.589648,20948.000000,0.0000000,0.0000000,2000,0,0,0,0,3.00,0.00,0.00,1500,1500,1500,1500
27855,192.00,-1.789276,-1.589648,15171.000000,0.0000000,0.0000000,2000,0,0,0,0,3.00,0.00,0.00,1500,1500,1500,1500
27904,192.00,-1.789276,-1.589648,15063.000000,0.0000000,0.0000000,2000,0,0,0,0,3.00,0.00,0.00,1500,1500,1500,1500
27956,192.00,-1.789276,-1.589648,17312.000000,0.0000000,0.0000000,2000,0,0,0,0,3.00,0.00,0.00,1500,1500,1500,1500
28006,192.00,-1.789276,-1.589648,21457.000000,0.0000000,0.0000000,2000,0,0,0,0,3.00,0.00,0.00,1500,1500,1500,1500
28056,192.00,-1.789276,-1.589648,20050.000000,0.0000000,0.0000000,2000,0,0,0,0,3.00,0.00,0.00,1500,1500,1500,1500
28107,192.00,-1.789276,-1.589648,24069.000000,0.0000000,0.0000000,2000,0,0,0,0,3.00,0.00,0.00,1500,1500,1500,1500
28157,192.00,-1.789276,-1.589648,20971.000000,0.0000000,0.0000000,2000,0,0,0,0,3.00,0.00,0.00,1500,1500,1500,1500
28204,192.00,-1.789276,-1.589648,12364.000000,0.0000000,0.0000000,2000,0,0,0,0,3.00,0.00,0.00,1500,1500,1500,1500
28255,192.00,-1.796269,-1.589657,7864.000000,0.0000000,0.0000000,2000,0,0,0,0,3.00,0.00,0.00,1500,1500,1500,1500
28307,192.00,-1.789276,-1.589648,25993.000000,0.0000000,0.0000000,2000,0,0,0,0,3.00,0.00,0.00,1500,1500,1500,1500
28357,192.00,-1.789276,-1.589648,23794.000000,0.0000000,0.0000000,2000,0,0,0,0,3.00,0.00,0.00,1500,1500,1500,1500
28405,192.00,-1.789276,-1.589648,20258.000000,0.0000000,0.0000000,2000,0,0,0,0,3.00,0.00,0.00,1500,1500,1500,1500
28455,192.00,-1.789276,-1.589648,11222.000000,0.0000000,0.0000000,2000,0,0,0,0,3.00,0.00,0.00,1500,1500,1500,1500
28505,192.00,-1.789276,-1.589648,12967.000000,0.0000000,0.0000000,2000,0,0,0,0,3.00,0.00,0.00,1500,1500,1500,1500
28554,192.00,-1.789276,-1.589648,14183.000000,0.0000000,0.0000000,2000,0,0,0,0,3.00,0.00,0.00,1500,1500,1500,1500
28605,192.00,-1.789276,-1.589648,9655.000000,0.0000000,0.0000000,2000,0,0,0,0,3.00,0.00,0.00,1500,1500,1500,1500
28655,192.00,-1.789276,-1.589648,14987.000000,0.0000000,0.0000000,2000,0,0,0,0,3.00,0.00,0.00,1500,1500,1500,1500
28707,192.00,-1.789276,-1.589648,23983.000000,0.0000000,0.0000000,2000,0,0,0,0,3.00,0.00,0.00,1500,1500,1500,1500
28755,192.00,-1.789276,-1.589648,12352.000000,0.0000000,0.0000000,2000,0,0,0,0,3.00,0.00,0.00,1500,1500,1500,1500
38705,192.00,-1.803262,-1.589665,13042.000000,0.0000000,0.0000000,2000,0,0,0,0,3.00,0.00,0.00,1500,1500,1500,1500
38755,192.00,-1.803262,-1.589665,17072.000000,0.0000000,0.0000000,2000,0,0,0,0,3.00,0.00,0.00,1500,1500,1500,1500
38804,192.00,-1.803262,-1.589665,15004.000000,0.0000000,0.0000000,2000,0,0,0,0,3.00,0.00,0.00,1500,1500,1500,1500
38855,192.00,-1.803262,-1.589665,18378.000000,0.0000000,0.0000000,2000,0,0,0,0,3.00,0.00,0.00,1500,1500,1500,1500
38905,192.00,-1.803262,-1.589665,18005.000000,0.0000000,0.0000000,2000,0,0,0,0,3.00,0.00,0.00,1500,1500,1500,1500
38954,192.00,-1.803262,-1.589665,14842.000000,0.0000000,0.0000000,2000,0,0,0,0,3.00,0.00,0.00,1500,1500,1500,1500
39005,192.00,-1.803262,-1.589665,21393.000000,0.0000000,0.0000000,2000,0,0,0,0,3.00,0.00,0.00,1500,1500,1500,1500
39056,192.00,-1.803262,-1.589665,13962.000000,0.0000000,0.0000000,2000,0,0,0,0,3.00,0.00,0.00,1500,1500,1500,1500
